{
    "data": [
    {
    "latitude": 19.206034,
    "longitude": 72.850433,
    "type": "venue",
    "name": "Kandivali Fire Station",
    "number": null,
    "postal_code": null,
    "street": null,
    "confidence": 1,
    "region": "Maharashtra",
    "region_code": "MH",
    "county": "Mumbai City",
    "locality": "Mumbai",
    "administrative_area": null,
    "neighbourhood": "Poisar",
    "country": "India",
    "country_code": "IND",
    "continent": "Asia",
    "label": "Kandivali Fire Station, Mumbai, MH, India"
    },
    {
    "latitude": 19.209583,
    "longitude": 72.85014,
    "type": "venue",
    "name": "Kandivali Police Station",
    "number": null,
    "postal_code": null,
    "street": null,
    "confidence": 1,
    "region": "Maharashtra",
    "region_code": "MH",
    "county": "Mumbai City",
    "locality": "Mumbai",
    "administrative_area": null,
    "neighbourhood": "Poisar",
    "country": "India",
    "country_code": "IND",
    "continent": "Asia",
    "label": "Kandivali Police Station, Mumbai, MH, India"
    },
    {
    "latitude": 19.204159,
    "longitude": 72.851682,
    "type": "venue",
    "name": "Kandivali",
    "number": null,
    "postal_code": null,
    "street": null,
    "confidence": 1,
    "region": "Maharashtra",
    "region_code": "MH",
    "county": "Mumbai City",
    "locality": "Mumbai",
    "administrative_area": null,
    "neighbourhood": "Poisar",
    "country": "India",
    "country_code": "IND",
    "continent": "Asia",
    "label": "Kandivali, Mumbai, MH, India"
    },
    {
    "latitude": 19.204186,
    "longitude": 72.85214,
    "type": "venue",
    "name": "Kandivali",
    "number": null,
    "postal_code": null,
    "street": null,
    "confidence": 1,
    "region": "Maharashtra",
    "region_code": "MH",
    "county": "Mumbai City",
    "locality": "Mumbai",
    "administrative_area": null,
    "neighbourhood": "Malad North",
    "country": "India",
    "country_code": "IND",
    "continent": "Asia",
    "label": "Kandivali, Mumbai, MH, India"
    },
    {
    "latitude": 19.210564,
    "longitude": 72.832007,
    "type": "neighbourhood",
    "name": "Kandivali",
    "number": null,
    "postal_code": null,
    "street": null,
    "confidence": 1,
    "region": "Maharashtra",
    "region_code": "MH",
    "county": "Mumbai City",
    "locality": "Mumbai",
    "administrative_area": null,
    "neighbourhood": "Kandivali",
    "country": "India",
    "country_code": "IND",
    "continent": "Asia",
    "label": "Kandivali, Mumbai, MH, India"
    },
    {
    "latitude": 19.213488,
    "longitude": 72.864132,
    "type": "venue",
    "name": "Aditi Hospital, Kandivali",
    "number": null,
    "postal_code": "400101",
    "street": null,
    "confidence": 1,
    "region": "Maharashtra",
    "region_code": "MH",
    "county": "Mumbai City",
    "locality": "Mumbai",
    "administrative_area": null,
    "neighbourhood": "Poisar",
    "country": "India",
    "country_code": "IND",
    "continent": "Asia",
    "label": "Aditi Hospital, Kandivali, Mumbai, MH, India"
    },
    {
    "latitude": 19.203073,
    "longitude": 72.847027,
    "type": "venue",
    "name": "Ankur Hospital, Kandivali",
    "number": null,
    "postal_code": "400067",
    "street": null,
    "confidence": 1,
    "region": "Maharashtra",
    "region_code": "MH",
    "county": "Mumbai City",
    "locality": "Mumbai",
    "administrative_area": null,
    "neighbourhood": "Malad North",
    "country": "India",
    "country_code": "IND",
    "continent": "Asia",
    "label": "Ankur Hospital, Kandivali, Mumbai, MH, India"
    },
    {
    "latitude": 19.21109,
    "longitude": 72.864511,
    "type": "neighbourhood",
    "name": "Kandivali East",
    "number": null,
    "postal_code": null,
    "street": null,
    "confidence": 1,
    "region": "Maharashtra",
    "region_code": "MH",
    "county": "Mumbai City",
    "locality": "Mumbai",
    "administrative_area": null,
    "neighbourhood": "Kandivali East",
    "country": "India",
    "country_code": "IND",
    "continent": "Asia",
    "label": "Kandivali East, Mumbai, MH, India"
    },
    {
    "latitude": 19.19835,
    "longitude": 72.854462,
    "type": "locality",
    "name": "Kandivali",
    "number": null,
    "postal_code": null,
    "street": null,
    "confidence": 1,
    "region": "Maharashtra",
    "region_code": "MH",
    "county": "Mumbai City",
    "locality": "Kandivali",
    "administrative_area": null,
    "neighbourhood": null,
    "country": "India",
    "country_code": "IND",
    "continent": "Asia",
    "label": "Kandivali, MH, India"
    },
    {
    "latitude": 19.208706,
    "longitude": 72.839969,
    "type": "neighbourhood",
    "name": "Kandivali West",
    "number": null,
    "postal_code": null,
    "street": null,
    "confidence": 1,
    "region": "Maharashtra",
    "region_code": "MH",
    "county": "Mumbai City",
    "locality": "Mumbai",
    "administrative_area": null,
    "neighbourhood": "Kandivali West",
    "country": "India",
    "country_code": "IND",
    "continent": "Asia",
    "label": "Kandivali West, Mumbai, MH, India"
    }
    ]
    }